{"cast32": {"dest_lon": -4.0, "name": "Houston", "created": "2015-12-10 07:06:06", "recast": false, "explanation": "launched many small rockets from here with the kids, lost a few too!", "artwork": "wall_explosion_ii_1965", "year": 2015, "day": 20, "dest_lat": 50.544092, "month": 12}, "cast33": {"dest_lon": -3.178973, "name": "needs a waterlily", "created": "2015-12-10 14:06:28", "recast": false, "explanation": "this place needs a lily", "artwork": "water_lilies_with_cloud_1992", "year": 2015, "day": 10, "dest_lat": 55.949906, "month": 12}, "cast30": {"dest_lon": -2.718219, "name": "another airport", "created": "2015-12-09 07:26:45", "recast": false, "explanation": "recast from one billboarded airport to another! this is where I'm headed today, and I'll soon be in a car.", "artwork": "in_the_car_1963", "year": 2015, "day": 9, "dest_lat": 51.383366, "month": 12}, "cast31": {"dest_lon": -2.932858, "name": "self presentation", "created": "2015-12-09 07:33:32", "recast": false, "explanation": "a reminder to be self possessed & confident when giving my presentation today.", "artwork": "arnold_schwarzenegger_1976", "year": 2015, "day": 9, "dest_lat": 51.603525, "month": 12}, "cast36": {"dest_lon": -85.932968, "name": "aurora borealis", "created": "2015-12-11 07:21:59", "recast": false, "explanation": "I hope to see it again...", "artwork": "wall_explosion_ii_1965", "year": 2016, "day": 1, "dest_lat": 58.675406, "month": 6}, "cast37": {"dest_lon": 67.382857, "name": "music to lift off to", "created": "2015-12-11 10:00:01", "recast": false, "explanation": "Some jazz for Timothy Peake during blast off. ", "artwork": "composition_i_1996", "year": 2015, "day": 15, "dest_lat": 47.827276, "month": 12}, "cast34": {"dest_lon": 140.46, "name": "cold and hot", "created": "2015-12-10 14:36:45", "recast": false, "explanation": "reflections", "artwork": "water_lily_pond_with_reflections_1992", "year": 2099, "day": 9, "dest_lat": 38.28, "month": 1}, "cast35": {"dest_lon": -3.206722, "name": "nursery", "created": "2015-12-10 14:40:37", "recast": false, "explanation": "hope this isn't the picture at nursery just now", "artwork": "reflections_on_the_scream_1990", "year": 2015, "day": 10, "dest_lat": 55.93731, "month": 12}, "cast38": {"dest_lon": -85.945399, "name": "test", "created": "2015-12-11 11:05:27", "recast": false, "explanation": "test", "artwork": "composition_i_1996", "year": 2015, "day": 12, "dest_lat": 50.226894, "month": 12}, "cast39": {"dest_lon": -79.381713, "name": "jazz hands", "created": "2015-12-11 11:08:32", "recast": false, "explanation": "Jazz hands on Broadway, naturally", "artwork": "composition_ii_1996", "year": 2015, "day": 10, "dest_lat": 43.651893, "month": 12}, "cast94": {"dest_lon": -147.840074, "name": "Norman Rea Gallery", "created": "2016-04-15 10:55:54", "recast": false, "explanation": "I help run the Norman Rea Gallery and think it will go well in the space.", "artwork": "lowell_smith_1981", "year": 2016, "day": 15, "dest_lat": 64.845014, "month": 4}, "cast95": {"dest_lon": 2.65016, "name": "Holiday", "created": "2016-04-15 11:31:55", "recast": false, "explanation": "Chilling out in the sun", "artwork": "brice_marden_1976", "year": 2015, "day": 23, "dest_lat": 39.569601, "month": 7}, "cast96": {"dest_lon": -1.055623, "name": "Arnie", "created": "2016-04-15 11:09:01", "recast": false, "explanation": "Sometimes you just need a strong guy.", "artwork": "arnold_schwarzenegger_1976", "year": 2016, "day": 15, "dest_lat": 53.945431, "month": 4}, "cast97": {"dest_lon": -73.974187, "name": "central park", "created": "2016-04-15 11:03:22", "recast": false, "explanation": "Chilling out in the park", "artwork": "patti_smith_1975", "year": 2016, "day": 15, "dest_lat": 40.771133, "month": 4}, "cast90": {"dest_lon": -118.491191, "name": "Muscle Beach", "created": "2016-04-11 16:20:24", "recast": false, "explanation": "This photo makes me think of bodybuilders on Muscle Beach  on Venice Beach, California.", "artwork": "arnold_schwarzenegger_1976", "year": 2016, "day": 14, "dest_lat": 34.019454, "month": 4}, "cast91": {"dest_lon": 4.35171, "name": "Test", "created": "2016-04-14 12:03:07", "recast": false, "explanation": "Test", "artwork": "molissa_fenley_1983", "year": 2016, "day": 14, "dest_lat": 50.85034, "month": 4}, "cast92": {"dest_lon": -91.831833, "name": "Test", "created": "2016-04-14 12:10:15", "recast": true, "explanation": "How I think of Dorothy's uncle henry", "artwork": "willem_de_kooning_1986", "year": 2016, "day": 15, "dest_lat": 35.20105, "month": 4}, "cast93": {"dest_lon": -3.498458, "name": "Bodelwyddan", "created": "2016-04-15 10:28:34", "recast": false, "explanation": "Born here.", "artwork": "skull_1988", "year": 2016, "day": 15, "dest_lat": 53.268061, "month": 4}, "cast98": {"dest_lon": -3.623861, "name": "my mams", "created": "2016-04-19 08:43:41", "recast": false, "explanation": "my thoughts", "artwork": "self_portrait_1988", "year": 2016, "day": 15, "dest_lat": 55.873939, "month": 4}, "cast99": {"dest_lon": -0.099709, "name": "first times", "created": "2016-04-20 08:41:05", "recast": false, "explanation": "possibly the first time I saw Lichtenstein in person but a memorable trip to London", "artwork": "in_the_car_1963", "year": 2013, "day": 17, "dest_lat": 51.507681, "month": 12}, "cast21": {"dest_lon": -3.180656, "name": "fun time", "created": "2015-12-03 11:00:10", "recast": false, "explanation": "lots of people should cry here, if they're not doing that already", "artwork": "reflections_on_the_scream_1990", "year": 2015, "day": 3, "dest_lat": 55.950212, "month": 12}, "cast20": {"dest_lon": -3.349551, "name": "on a billboard along the motorway", "created": "2015-12-01 11:53:55", "recast": false, "explanation": "on a billboard along a traffic jam. many people will enjoy it", "artwork": "in_the_car_1963", "year": 2015, "day": 1, "dest_lat": 55.952131, "month": 12}, "cast23": {"dest_lon": -73.979971, "name": "Carnegie Hall", "created": "2015-12-04 09:38:11", "recast": false, "explanation": "For the music lovers out there", "artwork": "composition_i_1996", "year": 2015, "day": 1, "dest_lat": 40.765088, "month": 1}, "cast22": {"dest_lon": 18.424076, "name": "high ", "created": "2015-12-03 19:23:48", "recast": false, "explanation": "sailing", "artwork": "wall_explosion_ii_1965", "year": 2015, "day": 4, "dest_lat": -33.925219, "month": 12}, "cast25": {"dest_lon": 151.205345, "name": "Down under", "created": "2015-12-04 10:31:40", "recast": false, "explanation": "mid summer there -so jealous", "artwork": "water_lilies_with_cloud_1992", "year": 2015, "day": 5, "dest_lat": -33.872764, "month": 12}, "cast24": {"dest_lon": -3.198959, "name": "Edinburgh college of art", "created": "2015-12-04 09:39:42", "recast": false, "explanation": "it can join the nudes in the sculpture court, the casts are currently not on display so here are two nudes ", "artwork": "two_nudes_1994", "year": 2015, "day": 4, "dest_lat": 55.945686, "month": 12}, "cast27": {"dest_lon": 14.844832, "name": "home", "created": "2015-12-04 15:56:59", "recast": false, "explanation": "teddy ft", "artwork": "reflections_on_crash_1990", "year": 2001, "day": 1, "dest_lat": 47.648006, "month": 1}, "cast26": {"dest_lon": -3.189557, "name": "reinvention", "created": "2015-12-04 11:58:52", "recast": false, "explanation": "unidays", "artwork": "modern_art_i_1996", "year": 2015, "day": 4, "dest_lat": 55.947482, "month": 12}, "cast29": {"dest_lon": 0.305117, "name": "Nana and Grandpa's house", "created": "2015-12-08 13:43:36", "recast": false, "explanation": "the photograph took me straight back to my grandpa who died over 10 years ago due to Parkinson's disease. something about the wrinkles, the grey hair and the warm face took me straight to their home in the fens", "artwork": "willem_de_kooning_1986", "year": 2015, "day": 25, "dest_lat": 52.457828, "month": 12}, "cast28": {"dest_lon": 149.088711, "name": "I almost went", "created": "2015-12-06 13:31:18", "recast": false, "explanation": "like a missed opportunity, almost clear.", "artwork": "reflections_on_girl_1990", "year": 2015, "day": 1, "dest_lat": -35.236742, "month": 8}, "cast83": {"dest_lon": 83.216653, "name": "Hong Kong ", "created": "2016-03-12 11:53:11", "recast": false, "explanation": "I love Hong Kong because my Auntie lives there ", "artwork": "composition_i_1996", "year": 2016, "day": 1, "dest_lat": 52.189357, "month": 1}, "cast82": {"dest_lon": 2.352222, "name": "Eiffel tower", "created": "2016-03-12 11:51:12", "recast": false, "explanation": "She wants a nice view", "artwork": "patti_smith_1975", "year": 2016, "day": 12, "dest_lat": 48.856614, "month": 3}, "cast81": {"dest_lon": -74.007228, "name": "New York", "created": "2016-03-12 11:49:59", "recast": false, "explanation": "I just thought it fit with the sexual politics frequently brought up in the news today ", "artwork": "nick_1977", "year": 2016, "day": 1, "dest_lat": 40.713054, "month": 1}, "cast80": {"dest_lon": -1.077626, "name": "beach", "created": "2016-03-12 11:49:29", "recast": false, "explanation": "because he looks like he is chilling on the beach ", "artwork": "david_hockney_1976", "year": 2016, "day": 1, "dest_lat": 54.603005, "month": 1}, "cast87": {"dest_lon": -0.122553, "name": "The Royal Opera House", "created": "2016-03-20 17:44:37", "recast": false, "explanation": "This photograph reminds me of when I used to work with ballet dancers at The Royal Opera House, London.", "artwork": "feet_1982", "year": 2016, "day": 20, "dest_lat": 51.5129, "month": 3}, "cast86": {"dest_lon": -74.007228, "name": "there sort of style ", "created": "2016-03-12 20:56:06", "recast": false, "explanation": "it looks like it comes from there ", "artwork": "in_the_car_1963", "year": 2016, "day": 1, "dest_lat": 40.713054, "month": 1}, "cast85": {"dest_lon": -0.126236, "name": "back alley way", "created": "2016-03-12 20:48:03", "recast": false, "explanation": "it is very well captured ", "artwork": "lindsay_key_1985", "year": 2016, "day": 1, "dest_lat": 51.500152, "month": 1}, "cast84": {"dest_lon": 140.46, "name": "Mount Fuji ", "created": "2016-03-12 11:56:36", "recast": false, "explanation": "Japan is the best", "artwork": "reflections_on_the_scream_1990", "year": 2016, "day": 1, "dest_lat": 38.28, "month": 1}, "cast89": {"dest_lon": -118.243344, "name": "museums and the web", "created": "2016-04-07 21:46:32", "recast": false, "explanation": "I'm here now listening to chris", "artwork": "iggy_pop_1981", "year": 2016, "day": 8, "dest_lat": 34.052238, "month": 4}, "cast88": {"dest_lon": -3.177481, "name": "Hello Sian and Chris!", "created": "2016-04-06 15:23:06", "recast": false, "explanation": "Greetings to my colleagues as we cross paths on the way to the reception.", "artwork": "in_the_car_1963", "year": 2016, "day": 25, "dest_lat": 55.954238, "month": 4}, "cast101": {"dest_lon": -1.992736, "name": "home", "created": "2016-04-23 11:58:59", "recast": false, "explanation": "secret", "artwork": "arnold_schwarzenegger_1976", "year": 2016, "day": 23, "dest_lat": 53.891783, "month": 4}, "cast100": {"dest_lon": -0.143799, "name": "bbc broadcasting HQ", "created": "2016-04-20 08:44:58", "recast": false, "explanation": "Listened to a Marianne Faithful song this morning thanks to Chris Evans. Helped contextualise the exhibition.  ", "artwork": "marianne_faithfull_1976", "year": 2016, "day": 12, "dest_lat": 51.518561, "month": 5}, "cast103": {"dest_lon": -1.034834, "name": "the hub", "created": "2016-06-21 09:42:42", "recast": false, "explanation": "I need a dancing partner. now ", "artwork": "lisa_lyon_1982", "year": 0, "day": 0, "dest_lat": 53.946312, "month": 0}, "cast102": {"dest_lon": -3.393718, "name": "don't you feel like writing a blog post? ", "created": "2016-04-27 12:14:45", "recast": false, "explanation": "just a friendly reminder from your friends at artcasting central!!", "artwork": "marianne_faithfull_1976", "year": 2016, "day": 1, "dest_lat": 56.012394, "month": 1}, "cast104": {"dest_lon": -1.029799, "name": "AHRC Commons", "created": "2016-06-21 10:28:06", "recast": false, "explanation": "caught in the gusts of ideas produced by AHRC researchers ", "artwork": "lindsay_key_1985", "year": 2016, "day": 21, "dest_lat": 53.947358, "month": 6}, "cast103": {"dest_lon": -1.02801, "name": "AHRC Commons", "created": "2016-06-21 09:43:49", "recast": false, "explanation": "It's alive! Come and hear about #artcasting, it's enlivening arts evaluation!", "artwork": "skull_1988", "year": 2016, "day": 21, "dest_lat": 53.947334, "month": 6}, "cast105": {"dest_lon": 153.022977, "name": "DIS", "created": "2016-06-21 10:31:42", "recast": false, "explanation": "still struggling with jet lag from DIS2016 ", "artwork": "david_hockney_1976", "year": 2016, "day": 22, "dest_lat": -27.470027, "month": 6}, "cast18": {"dest_lon": 12.251522, "name": "da Vinci hometown", "created": "2015-11-29 13:43:58", "recast": false, "explanation": "i would like da Vinci to see how art is in the 21st century because I think he would love to get into photography. this reminds me of his drawing of the man in the circle. I love his cheeky face, like he's saying yes it's a classical reference but it's me as well. ", "artwork": "self_portrait_1975", "year": 1602, "day": 1, "dest_lat": 42.76319, "month": 1}, "cast19": {"dest_lon": -120.286405, "name": "dustbowl", "created": "2015-11-29 13:49:29", "recast": false, "explanation": "it reminded me of Dorothea lange's work and maybe she'd be really pleased to see that her style of realism is valued. ", "artwork": "robert_rauschenberg_1983", "year": 1936, "day": 1, "dest_lat": 37.133742, "month": 7}, "cast14": {"dest_lon": -0.298982, "name": "Wembley arena", "created": "2015-11-27 20:01:21", "recast": false, "explanation": "reminds me of Ziggy Stardust", "artwork": "self_portrait_1980", "year": 1980, "day": 1, "dest_lat": 51.552025, "month": 1}, "cast15": {"dest_lon": -109.450779, "name": "Waltons mountain", "created": "2015-11-27 20:17:15", "recast": false, "explanation": "made us think of grandad walton", "artwork": "willem_de_kooning_1986", "year": 1970, "day": 1, "dest_lat": 47.05007, "month": 1}, "cast16": {"dest_lon": -6.370578, "name": "School", "created": "2015-11-28 10:43:31", "recast": false, "explanation": "The text on the jacket reminds me of the effort I would put into scrawling my favourite bands' names all over books and pencil cases. You can see how much music is a visual part of someone's identity, especially at a young age and this was very important to me growing up.", "artwork": "nick_marden_1980", "year": 1997, "day": 1, "dest_lat": 53.286574, "month": 1}, "cast17": {"dest_lon": -101.844884, "name": "mexico", "created": "2015-11-28 11:06:38", "recast": false, "explanation": "he belongs in Mexico because he's a Mexican wrestler", "artwork": "nick_1977", "year": 2015, "day": 29, "dest_lat": 22.40657, "month": 11}, "cast10": {"dest_lon": 4.890935, "name": "Amsterdam ", "created": "2015-11-27 19:26:33", "recast": false, "explanation": "as I love the photo because there is something simplistic and lovely about it , and I will be there ", "artwork": "self_portrait_1975", "year": 2016, "day": 1, "dest_lat": 52.373801, "month": 1}, "cast11": {"dest_lon": 139.508072, "name": "YSP Wakefield England ", "created": "2015-11-27 19:30:12", "recast": false, "explanation": "happy times with my daughter and friends running around the artwork ", "artwork": "lindsay_key_1985", "year": 2016, "day": 1, "dest_lat": 35.378287, "month": 1}, "cast12": {"dest_lon": -2.234377, "name": "castlefield gallery", "created": "2015-11-27 19:45:27", "recast": false, "explanation": "sometime around then except I can't really remember I saw Patti Smith live in the city  ", "artwork": "patti_smith_1975", "year": 1982, "day": 1, "dest_lat": 53.480713, "month": 1}, "cast13": {"dest_lon": 4.354727, "name": "European Parliament ", "created": "2015-11-27 19:49:53", "recast": false, "explanation": "this is a reminder to me and my fellow MEPs to look after and welcome people fleeing conflict who are hanging onto life in the most difficult of circumstances", "artwork": "lowell_smith_1981", "year": 2015, "day": 1, "dest_lat": 50.846281, "month": 12}, "cast78": {"dest_lon": -0.127758, "name": "Buckingham palace", "created": "2016-03-12 11:46:32", "recast": false, "explanation": "The queen needs to see some eyes", "artwork": "self_portrait_1988", "year": 2016, "day": 12, "dest_lat": 51.507351, "month": 3}, "cast79": {"dest_lon": 140.46, "name": "studio ghibli", "created": "2016-03-12 11:49:09", "recast": false, "explanation": "because I like Japan and I want to go there one day with my friend", "artwork": "iggy_pop_1981", "year": 2016, "day": 1, "dest_lat": 38.28, "month": 1}, "cast76": {"dest_lon": 138.599541, "name": "Adelaide", "created": "2016-03-01 08:56:47", "recast": false, "explanation": "hello Adelaide", "artwork": "skull_1988", "year": 2017, "day": 3, "dest_lat": -34.927171, "month": 2}, "cast77": {"dest_lon": -105.050335, "name": "westmister", "created": "2016-03-01 13:24:02", "recast": false, "explanation": "explosions ", "artwork": "wall_explosion_ii_1965", "year": 2016, "day": 27, "dest_lat": 39.863462, "month": 7}, "cast74": {"dest_lon": 5.291266, "name": "Netherlands", "created": "2016-02-27 15:36:19", "recast": false, "explanation": "De Kooning sounds as if he is from the Netherlands, also the clothes look the traditional clothes of the country", "artwork": "willem_de_kooning_1986", "year": 1700, "day": 1, "dest_lat": 52.132633, "month": 1}, "cast75": {"dest_lon": -1.910873, "name": "me", "created": "2016-02-27 20:58:19", "recast": false, "explanation": "reminds me of my youth", "artwork": "marianne_faithfull_1976", "year": 2016, "day": 27, "dest_lat": 54.549586, "month": 2}, "cast72": {"dest_lon": -1.553051, "name": "civic theatre ", "created": "2016-02-27 15:32:46", "recast": false, "explanation": "the image has a haunting and old feel to it where mappleton in the image looks like he is unsure about his true identity.", "artwork": "self_portrait_1980", "year": 2016, "day": 1, "dest_lat": 54.528734, "month": 1}, "cast73": {"dest_lon": 1.852377, "name": "Holidays", "created": "2016-02-27 15:35:58", "recast": false, "explanation": "good memories", "artwork": "lowell_smith_1981", "year": 2016, "day": 1, "dest_lat": 50.952849, "month": 1}, "cast70": {"dest_lon": -3.025618, "name": "town", "created": "2016-02-27 11:22:38", "recast": false, "explanation": "test cast", "artwork": "david_hockney_1976", "year": 2016, "day": 1, "dest_lat": 51.64825, "month": 1}, "cast71": {"dest_lon": -123.138571, "name": "Place of defiance", "created": "2016-02-27 15:29:29", "recast": false, "explanation": "I believe that if I go to Vancouver, I will learn to become my own person and defy stereotypes like this photo", "artwork": "self_portrait_1988", "year": 2016, "day": 1, "dest_lat": 49.263539, "month": 1}, "cast69": {"dest_lon": -0.944083, "name": "myplace", "created": "2016-02-26 12:09:38", "recast": false, "explanation": "adwdwa", "artwork": "alice_neel_1984", "year": 2016, "day": 26, "dest_lat": 53.077676, "month": 2}, "cast68": {"dest_lon": -1.915354, "name": "See you soon, Patti!", "created": "2016-02-26 10:20:07", "recast": false, "explanation": "I will be visiting Bowes again in a few weeks, and I look forward to seeing Patti again then.", "artwork": "patti_smith_1975", "year": 2016, "day": 12, "dest_lat": 54.542034, "month": 3}, "cast65": {"dest_lon": -3.180839, "name": "Amber warning of wind", "created": "2016-02-01 08:34:32", "recast": false, "explanation": "I am windswept and on my way", "artwork": "lindsay_key_1985", "year": 2016, "day": 1, "dest_lat": 55.950849, "month": 2}, "cast64": {"dest_lon": 14.407159, "name": "Home", "created": "2016-01-20 17:50:51", "recast": false, "explanation": "Reminds me of home ", "artwork": "reflections_on_art_1988", "year": 2016, "day": 20, "dest_lat": 35.924574, "month": 1}, "cast67": {"dest_lon": -1.915354, "name": "See you soon, Patti!", "created": "2016-02-26 10:20:03", "recast": false, "explanation": "I will be visiting Bowes again in a few weeks, and I look forward to seeing Patti again then.", "artwork": "patti_smith_1975", "year": 2016, "day": 12, "dest_lat": 54.542034, "month": 3}, "cast66": {"dest_lon": -0.126236, "name": "tattoo fixers", "created": "2016-02-26 09:36:56", "recast": false, "explanation": "wondering if he would 'fix' any of his tattoos?", "artwork": "nick_1977", "year": 2016, "day": 26, "dest_lat": 51.500152, "month": 2}, "cast61": {"dest_lon": -3.189518, "name": "wall looking good", "created": "2016-01-10 15:58:54", "recast": false, "explanation": "relates to local lover/speedsters", "artwork": "in_the_car_1963", "year": 2016, "day": 10, "dest_lat": 55.972533, "month": 1}, "cast60": {"dest_lon": -3.114314, "name": "beach ", "created": "2016-01-10 15:45:56", "recast": false, "explanation": "reflections on the sea", "artwork": "reflections_on_conversation_1990", "year": 2016, "day": 10, "dest_lat": 55.952691, "month": 1}, "cast63": {"dest_lon": -3.199174, "name": "School of Design", "created": "2016-01-13 09:41:25", "recast": false, "explanation": "about to head off to an undergraduate exam board...", "artwork": "skull_1988", "year": 2016, "day": 13, "dest_lat": 55.946489, "month": 1}, "cast62": {"dest_lon": 4.296512, "name": "S'Algar Diving Centre", "created": "2016-01-10 16:20:32", "recast": false, "explanation": "This brings back memories of watching water for hours as my brother learned to dive. Admittedly, Lichtenstein's influence was Giverny, and the calm water of a lily pond rather than the Mediterranean Sea. But the foil sections of this work make me think of waves and mermaids' tales flapping beneath the water's surface. ", "artwork": "water_lily_pond_with_reflections_1992", "year": 1995, "day": 10, "dest_lat": 39.833963, "month": 8}, "cast58": {"dest_lon": -3.703542, "name": "my friends exhibition ", "created": "2016-01-10 15:41:12", "recast": false, "explanation": "why not? ", "artwork": "reflections_on_art_1988", "year": 2016, "day": 10, "dest_lat": 40.416995, "month": 1}, "cast59": {"dest_lon": -4.306328, "name": "artcast ", "created": "2016-01-10 15:44:42", "recast": false, "explanation": "to share experiences across Europe ", "artwork": "reflections_on_crash_1990", "year": 2016, "day": 10, "dest_lat": 40.278191, "month": 1}, "cast50": {"dest_lon": -74.007228, "name": "Scotland", "created": "2016-01-10 14:33:19", "recast": false, "explanation": "it's cute. ", "artwork": "reflections_on_the_scream_1990", "year": 2016, "day": 11, "dest_lat": 40.713054, "month": 1}, "cast51": {"dest_lon": 153.022977, "name": "Kamron", "created": "2016-01-10 14:44:13", "recast": false, "explanation": "I sent this picture because I am in a music school, and because I love music", "artwork": "composition_iii_1996", "year": 2016, "day": 11, "dest_lat": -27.470027, "month": 1}, "cast52": {"dest_lon": -3.434661, "name": "Perth ", "created": "2016-01-10 14:47:03", "recast": false, "explanation": "rainy places need dry art", "artwork": "reflections_on_art_1988", "year": 2016, "day": 10, "dest_lat": 56.395337, "month": 1}, "cast53": {"dest_lon": 153.022977, "name": "Maryam", "created": "2016-01-10 14:48:17", "recast": false, "explanation": "because it looks something from the rainforest in Australia ", "artwork": "water_lilies_with_cloud_1992", "year": 2016, "day": 11, "dest_lat": -27.470027, "month": 1}, "cast54": {"dest_lon": -72.924161, "name": "Iona's house", "created": "2016-01-10 14:52:38", "recast": false, "explanation": "because I love Iona", "artwork": "composition_i_1996", "year": 2016, "day": 11, "dest_lat": 41.308252, "month": 1}, "cast55": {"dest_lon": -5.909098, "name": "Robbie whelton", "created": "2016-01-10 15:30:00", "recast": false, "explanation": "I like the picture and he really likes playing the piano and he is having a baby and I thought he could show it to his little girl when it is born", "artwork": "composition_i_1996", "year": 2016, "day": 10, "dest_lat": 57.057945, "month": 1}, "cast56": {"dest_lon": -0.126236, "name": "Royal Academy", "created": "2016-01-10 15:11:55", "recast": false, "explanation": "The Pop Art show, Royal Academy was the first time I saw  Lichenstein (and others) work up-close. Huge impression. ", "artwork": "in_the_car_1963", "year": 1991, "day": 23, "dest_lat": 51.500152, "month": 10}, "cast57": {"dest_lon": -3.011809, "name": "Mick and Gwen Davies", "created": "2016-01-10 15:13:44", "recast": false, "explanation": "because Granny and Grandpa are in the car", "artwork": "in_the_car_1963", "year": 2016, "day": 10, "dest_lat": 56.319433, "month": 1}, "cast8": {"dest_lon": -2.095397, "name": "Aberdeen ", "created": "2015-11-27 19:24:40", "recast": false, "explanation": "early college dayz", "artwork": "self_portrait_1975", "year": 1997, "day": 1, "dest_lat": 57.147492, "month": 1}, "cast9": {"dest_lon": -81.762788, "name": "clearwater", "created": "2015-11-27 19:26:24", "recast": false, "explanation": "a warm january", "artwork": "truman_capote_1981", "year": 2015, "day": 28, "dest_lat": 29.54496, "month": 11}, "cast2": {"dest_lon": 12.568116, "name": "on the way to the little mermaid", "created": "2015-11-25 13:25:00", "recast": false, "explanation": "walking to see the little mermaid.", "artwork": "feet_1982", "year": 2010, "day": 1, "dest_lat": 55.676294, "month": 10}, "cast3": {"dest_lon": -105.086496, "name": "soup can", "created": "2015-11-25 20:30:08", "recast": false, "explanation": "to be reunited with a soup can, way up high", "artwork": "andy_warhol_1986", "year": 2015, "day": 23, "dest_lat": 40.573458, "month": 11}, "cast0": {"dest_lon": -76.693405, "name": "maple syrup", "created": "2015-11-23 22:16:10", "recast": false, "explanation": "she looks like she would enjoy some sugar, and this is a good place for that.", "artwork": "molissa_fenley_1983", "year": 2013, "day": 1, "dest_lat": 44.481955, "month": 10}, "cast1": {"dest_lon": -3.179782, "name": "Rcahms", "created": "2015-11-25 11:51:26", "recast": false, "explanation": "it's special!", "artwork": "water_lilies_with_japanese_bridge_1992", "year": 2015, "day": 25, "dest_lat": 55.941161, "month": 11}, "cast6": {"dest_lon": -3.18506, "name": "storytelling centre", "created": "2015-11-26 15:53:59", "recast": false, "explanation": "she looks like she has a story to tell!", "artwork": "reflections_on_girl_1990", "year": 2015, "day": 26, "dest_lat": 55.950598, "month": 11}, "cast7": {"dest_lon": 4.890935, "name": "Van Gogh museum ", "created": "2015-11-27 19:17:00", "recast": false, "explanation": "memory of her concert", "artwork": "patti_smith_1975", "year": 2015, "day": 27, "dest_lat": 52.373801, "month": 11}, "cast4": {"dest_lon": -3.18415, "name": "play the piano!", "created": "2015-11-25 20:34:32", "recast": false, "explanation": "it makes you feel better", "artwork": "composition_ii_1996", "year": 2015, "day": 25, "dest_lat": 55.975676, "month": 11}, "cast5": {"dest_lon": -105.633927, "name": "working class hero", "created": "2015-11-26 00:00:00", "recast": false, "explanation": "driving through the mountains", "artwork": "marianne_faithfull_1976", "year": 2015, "day": 21, "dest_lat": 40.405371, "month": 11}, "cast47": {"dest_lon": -4.064059, "name": "Dousland", "created": "2016-01-10 13:42:03", "recast": false, "explanation": "mum crashed her mini, the brakes failed down a steep Dartmoor hill and she was forced to crash into a high wall / hedge", "artwork": "reflections_on_crash_1990", "year": 1992, "day": 1, "dest_lat": 50.501373, "month": 6}, "cast46": {"dest_lon": -74.007228, "name": "inspiration", "created": "2016-01-10 11:32:54", "recast": false, "explanation": "into the night ", "artwork": "reflections_on_art_1988", "year": 2016, "day": 12, "dest_lat": 40.713054, "month": 1}, "cast45": {"dest_lon": -118.243344, "name": "American Dream ", "created": "2016-01-10 07:14:13", "recast": false, "explanation": "pop culture aesthetics and the flat urban landscapes make the fit", "artwork": "in_the_car_1963", "year": 2016, "day": 11, "dest_lat": 34.052238, "month": 1}, "cast44": {"dest_lon": -0.296243, "name": "kew", "created": "2016-01-09 12:13:39", "recast": false, "explanation": "t", "artwork": "water_lilies_with_cloud_1992", "year": 2016, "day": 9, "dest_lat": 51.479322, "month": 1}, "cast43": {"dest_lon": -1.002616, "name": "Miss Havisham", "created": "2015-12-13 10:31:53", "recast": false, "explanation": "for some reason I ended up inside the most extraordinary house in Kibworth that was owned by a Miss Havisham who toured me through the memorabilia of her long lost husband who had fought in the boer war. Out of time but not out of touch, the house was between life and death.", "artwork": "alice_neel_1984", "year": 1861, "day": 11, "dest_lat": 52.547752, "month": 12}, "cast42": {"dest_lon": -73.98505, "name": "musical central", "created": "2015-12-12 13:51:33", "recast": false, "explanation": "today is all about the music", "artwork": "composition_ii_1996", "year": 2015, "day": 13, "dest_lat": 40.759497, "month": 12}, "cast41": {"dest_lon": -73.985699, "name": "happy new year", "created": "2015-12-12 12:56:04", "recast": false, "explanation": "music for the new year street party", "artwork": "composition_iii_1996", "year": 2015, "day": 31, "dest_lat": 40.757774, "month": 12}, "cast40": {"dest_lon": -3.217317, "name": "Haymarket", "created": "2015-12-12 09:37:34", "recast": false, "explanation": "Taxi for Speed", "artwork": "in_the_car_1963", "year": 2015, "day": 12, "dest_lat": 55.945974, "month": 12}, "cast49": {"dest_lon": 23.733333, "name": "gallery of art", "created": "2016-01-10 14:01:56", "recast": false, "explanation": " I wanted to communicate this picture with my colleagues in Greece", "artwork": "roommates_1994", "year": 2016, "day": 11, "dest_lat": 37.983333, "month": 1}, "cast48": {"dest_lon": -0.131227, "name": "Ronnie Scott's", "created": "2016-01-10 14:01:13", "recast": false, "explanation": "Jazz time", "artwork": "composition_ii_1996", "year": 2016, "day": 10, "dest_lat": 51.513205, "month": 1}}